{"type":"FeatureCollection","features":[{"type":"Feature","geometry":{"type":"LineString","coordinates":[[-3.1878,55.9444],[-3.1876072,55.9441702],[-3.187837,55.9439774],[-3.1876072,55.9441702],[-3.1878,55.9444],[-3.1875046,55.9444521],[-3.1872091,55.9445042],[-3.1869137,55.9445563],[-3.1872137,55.9445563],[-3.1875137,55.9445563],[-3.1878091,55.9446084],[-3.1879591,55.9448682],[-3.1881091,55.945128],[-3.1882591,55.9453878],[-3.1885546,55.9454399],[-3.1888546,55.9454399],[-3.1889067,55.9457353],[-3.1890093,55.9454534],[-3.1891593,55.9451936],[-3.1894412,55.9452962],[-3.1897231,55.9453988],[-3.1898257,55.9456807],[-3.1899283,55.9459626],[-3.1902102,55.94586],[-3.19047,55.94571],[-3.1907519,55.9456074],[-3.1910117,55.9454574],[-3.1912936,55.9453548],[-3.1915534,55.9452048],[-3.1914034,55.944945],[-3.1912534,55.9446852],[-3.1910606,55.9444554],[-3.1911127,55.94416],[-3.1911127,55.94386],[-3.1908308,55.9437574],[-3.190571,55.9436074],[-3.1902891,55.9435047],[-3.1903917,55.9432228],[-3.1905417,55.942963],[-3.1908236,55.9428604],[-3.1911055,55.9427578],[-3.19081,55.9428099],[-3.1905146,55.942862],[-3.1902192,55.9429141],[-3.1899237,55.9429662],[-3.1896283,55.9430183],[-3.1893328,55.9430704],[-3.1890328,55.9430704],[-3.1887374,55.9431225],[-3.188442,55.9431746],[-3.188142,55.9431746],[-3.1878465,55.9432267],[-3.1875511,55.9431746],[-3.1872556,55.9431225],[-3.1869602,55.9430704],[-3.1866647,55.9430183],[-3.1863693,55.9429662],[-3.1860739,55.9430183],[-3.1857784,55.9430704],[-3.1857784,55.9433704],[-3.1857263,55.9436658],[-3.1857263,55.9439658],[-3.1856742,55.9442613],[-3.1853923,55.9441587],[-3.1851104,55.9440561],[-3.1848285,55.9439535],[-3.1848285,55.9436535],[-3.1848285,55.9433535],[-3.1847764,55.9436489],[-3.1847243,55.9439443],[-3.1846722,55.9442398],[-3.1846201,55.9445352],[-3.184568,55.9448307],[-3.1845159,55.9451261],[-3.1847088,55.9453559],[-3.1848588,55.9456157],[-3.1850516,55.9458455],[-3.1852444,55.9460754],[-3.1855444,55.9460754],[-3.1858399,55.9460233],[-3.1860997,55.9458733],[-3.1863595,55.9457233],[-3.1866549,55.9456712],[-3.1868848,55.9454783],[-3.1867348,55.9452185],[-3.1865848,55.9449587],[-3.1867776,55.9451885],[-3.1869704,55.9454183],[-3.1871633,55.9456482],[-3.1873561,55.945878],[-3.1871633,55.9456482],[-3.1869704,55.9454183],[-3.1867776,55.9451885],[-3.1865848,55.9449587],[-3.1864821,55.9446768],[-3.1867776,55.9446247],[-3.187073,55.9445726],[-3.1873685,55.9445205],[-3.1876504,55.9444179]]},"properties":{}},{"type":"Feature","geometry":{"type":"Point","coordinates":[-3.188897,55.945707]},"properties":{"location":"stops.else.chats","marker-symbol":"danger","marker-color":"#ffc000","rgb-string":"#ffc000"}},{"type":"Feature","geometry":{"type":"Point","coordinates":[-3.186729,55.945653]},"properties":{"location":"hidden.handle.softly","marker-symbol":"danger","marker-color":"#ffc000","rgb-string":"#ffc000"}},{"type":"Feature","geometry":{"type":"Point","coordinates":[-3.188608,55.943119]},"properties":{"location":"groups.ideas.script","marker-symbol":"lighthouse","marker-color":"#40ff00","rgb-string":"#40ff00"}},{"type":"Feature","geometry":{"type":"Point","coordinates":[-3.185043,55.945868]},"properties":{"location":"rider.aura.bulb","marker-symbol":"danger","marker-color":"#ffc000","rgb-string":"#ffc000"}},{"type":"Feature","geometry":{"type":"Point","coordinates":[-3.191065,55.94444]},"properties":{"location":"paying.crowd.weep","marker-symbol":"lighthouse","marker-color":"#80ff00","rgb-string":"#80ff00"}},{"type":"Feature","geometry":{"type":"Point","coordinates":[-3.18567,55.944359]},"properties":{"location":"atoms.vanish.foods","marker-symbol":"cross","marker-color":"#000000","rgb-string":"#000000"}},{"type":"Feature","geometry":{"type":"Point","coordinates":[-3.187645,55.944143]},"properties":{"location":"bound.ends.matter","marker-symbol":"lighthouse","marker-color":"#40ff00","rgb-string":"#40ff00"}},{"type":"Feature","geometry":{"type":"Point","coordinates":[-3.191161,55.942742]},"properties":{"location":"along.spill.limp","marker-symbol":"lighthouse","marker-color":"#00ff00","rgb-string":"#00ff00"}},{"type":"Feature","geometry":{"type":"Point","coordinates":[-3.188319,55.945518]},"properties":{"location":"skills.less.herb","marker-symbol":"danger","marker-color":"#ff8000","rgb-string":"#ff8000"}},{"type":"Feature","geometry":{"type":"Point","coordinates":[-3.18986,55.945491]},"properties":{"location":"turkey.limit.ramp","marker-symbol":"danger","marker-color":"#ff8000","rgb-string":"#ff8000"}},{"type":"Feature","geometry":{"type":"Point","coordinates":[-3.185332,55.946138]},"properties":{"location":"prime.rent.silk","marker-symbol":"danger","marker-color":"#ff4000","rgb-string":"#ff4000"}},{"type":"Feature","geometry":{"type":"Point","coordinates":[-3.187837,55.943227]},"properties":{"location":"gums.clock.modes","marker-symbol":"lighthouse","marker-color":"#80ff00","rgb-string":"#80ff00"}},{"type":"Feature","geometry":{"type":"Point","coordinates":[-3.189186,55.945087]},"properties":{"location":"number.exist.rate","marker-symbol":"lighthouse","marker-color":"#80ff00","rgb-string":"#80ff00"}},{"type":"Feature","geometry":{"type":"Point","coordinates":[-3.186296,55.945761]},"properties":{"location":"posts.kicked.universally","marker-symbol":"danger","marker-color":"#ffc000","rgb-string":"#ffc000"}},{"type":"Feature","geometry":{"type":"Point","coordinates":[-3.184803,55.943173]},"properties":{"location":"brings.remedy.latter","marker-symbol":"danger","marker-color":"#ff0000","rgb-string":"#ff0000"}},{"type":"Feature","geometry":{"type":"Point","coordinates":[-3.187789,55.944386]},"properties":{"location":"thank.salsa.brain","marker-symbol":"lighthouse","marker-color":"#40ff00","rgb-string":"#40ff00"}},{"type":"Feature","geometry":{"type":"Point","coordinates":[-3.188801,55.945437]},"properties":{"location":"shady.soft.phones","marker-symbol":"lighthouse","marker-color":"#c0ff00","rgb-string":"#c0ff00"}},{"type":"Feature","geometry":{"type":"Point","coordinates":[-3.191113,55.943901]},"properties":{"location":"spicy.bunch.shady","marker-symbol":"lighthouse","marker-color":"#40ff00","rgb-string":"#40ff00"}},{"type":"Feature","geometry":{"type":"Point","coordinates":[-3.190583,55.942823]},"properties":{"location":"tonic.bliss.cove","marker-symbol":"lighthouse","marker-color":"#00ff00","rgb-string":"#00ff00"}},{"type":"Feature","geometry":{"type":"Point","coordinates":[-3.184513,55.945302]},"properties":{"location":"settle.title.united","marker-symbol":"danger","marker-color":"#ffc000","rgb-string":"#ffc000"}},{"type":"Feature","geometry":{"type":"Point","coordinates":[-3.185621,55.943065]},"properties":{"location":"toned.deflection.bland","marker-symbol":"danger","marker-color":"#ffc000","rgb-string":"#ffc000"}},{"type":"Feature","geometry":{"type":"Point","coordinates":[-3.186344,55.942958]},"properties":{"location":"hers.banks.goat","marker-symbol":"danger","marker-color":"#ff0000","rgb-string":"#ff0000"}},{"type":"Feature","geometry":{"type":"Point","coordinates":[-3.186777,55.944575]},"properties":{"location":"artist.gets.react","marker-symbol":"lighthouse","marker-color":"#c0ff00","rgb-string":"#c0ff00"}},{"type":"Feature","geometry":{"type":"Point","coordinates":[-3.186537,55.944925]},"properties":{"location":"laws.merit.bleak","marker-symbol":"danger","marker-color":"#ff4000","rgb-string":"#ff4000"}},{"type":"Feature","geometry":{"type":"Point","coordinates":[-3.186922,55.945437]},"properties":{"location":"spent.spoon.bolt","marker-symbol":"danger","marker-color":"#ff0000","rgb-string":"#ff0000"}},{"type":"Feature","geometry":{"type":"Point","coordinates":[-3.189957,55.94603]},"properties":{"location":"love.behind.orchestra","marker-symbol":"danger","marker-color":"#ff0000","rgb-string":"#ff0000"}},{"type":"Feature","geometry":{"type":"Point","coordinates":[-3.187404,55.945949]},"properties":{"location":"slips.mass.baking","marker-symbol":"danger","marker-color":"#ffc000","rgb-string":"#ffc000"}},{"type":"Feature","geometry":{"type":"Point","coordinates":[-3.185814,55.94603]},"properties":{"location":"renew.slows.basket","marker-symbol":"danger","marker-color":"#ffc000","rgb-string":"#ffc000"}},{"type":"Feature","geometry":{"type":"Point","coordinates":[-3.184658,55.943874]},"properties":{"location":"rider.mile.lime","marker-symbol":"danger","marker-color":"#ff4000","rgb-string":"#ff4000"}},{"type":"Feature","geometry":{"type":"Point","coordinates":[-3.191594,55.945195]},"properties":{"location":"hills.feels.tunes","marker-symbol":"danger","marker-color":"#ff0000","rgb-string":"#ff0000"}},{"type":"Feature","geometry":{"type":"Point","coordinates":[-3.185814,55.943551]},"properties":{"location":"record.sofa.sock","marker-symbol":"lighthouse","marker-color":"#c0ff00","rgb-string":"#c0ff00"}},{"type":"Feature","geometry":{"type":"Point","coordinates":[-3.190197,55.943443]},"properties":{"location":"arts.dish.scarcely","marker-symbol":"lighthouse","marker-color":"#00ff00","rgb-string":"#00ff00"}},{"type":"Feature","geometry":{"type":"Point","coordinates":[-3.187307,55.944494]},"properties":{"location":"only.fairly.rift","marker-symbol":"cross","marker-color":"#000000","rgb-string":"#000000"}}]}
