{"type":"FeatureCollection","features":[{"type":"Feature","geometry":{"type":"LineString","coordinates":[[-3.1875046,55.9444521],[-3.1872091,55.9445042],[-3.1869137,55.9445563],[-3.1872137,55.9445563],[-3.1871111,55.9442744],[-3.1870085,55.9439925],[-3.186713,55.9440446],[-3.1864176,55.9439925],[-3.1861221,55.9439404],[-3.1864221,55.9439404],[-3.1867176,55.9439925],[-3.187013,55.9439404],[-3.1873085,55.9438883],[-3.1872564,55.9435928],[-3.1872043,55.9432974],[-3.1871017,55.9430155],[-3.1869991,55.9427336],[-3.1866991,55.9427336],[-3.1864036,55.9427857],[-3.1866855,55.9428883],[-3.1869453,55.9430383],[-3.1872272,55.9431409],[-3.187487,55.9432909],[-3.187769,55.9433935],[-3.1880288,55.9435435],[-3.1881788,55.9438033],[-3.1883288,55.9440631],[-3.1884314,55.944345],[-3.1887268,55.9442929],[-3.1890223,55.9442408],[-3.1890743,55.9445363],[-3.1891264,55.9448317],[-3.1891785,55.9451272],[-3.1888785,55.9451272],[-3.1888264,55.9454226],[-3.188531,55.9454747],[-3.1882356,55.9455268],[-3.1879401,55.9455789],[-3.1876447,55.945631],[-3.1873447,55.945631],[-3.1870492,55.9455789],[-3.1868564,55.9453491],[-3.1866636,55.9451193],[-3.1865136,55.9448594],[-3.1862181,55.9449115],[-3.1859227,55.9449636],[-3.1856272,55.9450157],[-3.1853318,55.9450678],[-3.1850499,55.9451704],[-3.1847544,55.9452225],[-3.1844725,55.9453251],[-3.1845246,55.9450297],[-3.1845767,55.9447342],[-3.1846288,55.9444388],[-3.1846288,55.9441388],[-3.1846809,55.9438434],[-3.1849809,55.9438434],[-3.1852809,55.9438434],[-3.1855809,55.9438434],[-3.1858809,55.9438434],[-3.1861764,55.9438955],[-3.1864718,55.9439475],[-3.1867672,55.9439996],[-3.1870491,55.9441022],[-3.187309,55.9442522],[-3.1875688,55.9444022],[-3.1877986,55.9445951],[-3.1880584,55.9447451],[-3.1882882,55.9449379],[-3.188548,55.9450879],[-3.1887778,55.9452808],[-3.1890376,55.9454308],[-3.1892674,55.9456236],[-3.18937,55.9459055],[-3.1896655,55.9459576],[-3.1899609,55.9460097],[-3.1902609,55.9460097],[-3.1905609,55.9460097],[-3.1908609,55.9460097],[-3.1911564,55.9459576],[-3.1913064,55.9456978],[-3.1914564,55.945438],[-3.1916064,55.9451782],[-3.1919018,55.9451261],[-3.1922018,55.9451261],[-3.191972,55.9449332],[-3.1917422,55.9447404],[-3.1915124,55.9445476],[-3.1912526,55.9443976],[-3.1910228,55.9442047],[-3.1907629,55.9440547],[-3.1905331,55.9438619],[-3.1902733,55.9437119],[-3.1901707,55.94343],[-3.1900207,55.9431702],[-3.1899181,55.9428883],[-3.1902136,55.9428362],[-3.1905136,55.9428362],[-3.1907064,55.943066],[-3.1909362,55.9428732],[-3.191196,55.9427232],[-3.1909362,55.9428732],[-3.1906764,55.9430232],[-3.1904166,55.9431732],[-3.1901568,55.9433232],[-3.1898749,55.9434258],[-3.1896151,55.9435758],[-3.1893332,55.9436784],[-3.1890733,55.9438284],[-3.1887914,55.943931],[-3.1885316,55.944081],[-3.1882497,55.9441836],[-3.1879899,55.9443336],[-3.187708,55.9444362]]},"properties":{}},{"type":"Feature","geometry":{"type":"Point","coordinates":[-3.191161,55.945976]},"properties":{"location":"simple.rust.audio","marker-symbol":"danger","marker-color":"#ff4000","rgb-string":"#ff4000"}},{"type":"Feature","geometry":{"type":"Point","coordinates":[-3.189138,55.944197]},"properties":{"location":"spoon.invest.every","marker-symbol":"lighthouse","marker-color":"#40ff00","rgb-string":"#40ff00"}},{"type":"Feature","geometry":{"type":"Point","coordinates":[-3.189379,55.945949]},"properties":{"location":"coherent.saints.stuck","marker-symbol":"danger","marker-color":"#ff8000","rgb-string":"#ff8000"}},{"type":"Feature","geometry":{"type":"Point","coordinates":[-3.189908,55.942904]},"properties":{"location":"second.launch.miles","marker-symbol":"lighthouse","marker-color":"#00ff00","rgb-string":"#00ff00"}},{"type":"Feature","geometry":{"type":"Point","coordinates":[-3.187211,55.943335]},"properties":{"location":"scale.chair.kinds","marker-symbol":"lighthouse","marker-color":"#c0ff00","rgb-string":"#c0ff00"}},{"type":"Feature","geometry":{"type":"Point","coordinates":[-3.186007,55.943901]},"properties":{"location":"teams.mild.played","marker-symbol":"danger","marker-color":"#ff8000","rgb-string":"#ff8000"}},{"type":"Feature","geometry":{"type":"Point","coordinates":[-3.187982,55.943497]},"properties":{"location":"scare.cubs.resort","marker-symbol":"lighthouse","marker-color":"#40ff00","rgb-string":"#40ff00"}},{"type":"Feature","geometry":{"type":"Point","coordinates":[-3.18933,55.945653]},"properties":{"location":"museum.spicy.horns","marker-symbol":"danger","marker-color":"#ff4000","rgb-string":"#ff4000"}},{"type":"Feature","geometry":{"type":"Point","coordinates":[-3.186537,55.944925]},"properties":{"location":"laws.merit.bleak","marker-symbol":"danger","marker-color":"#ff8000","rgb-string":"#ff8000"}},{"type":"Feature","geometry":{"type":"Point","coordinates":[-3.186248,55.942796]},"properties":{"location":"under.retire.bump","marker-symbol":"danger","marker-color":"#ff0000","rgb-string":"#ff0000"}},{"type":"Feature","geometry":{"type":"Point","coordinates":[-3.190727,55.943092]},"properties":{"location":"relate.chill.vest","marker-symbol":"lighthouse","marker-color":"#40ff00","rgb-string":"#40ff00"}},{"type":"Feature","geometry":{"type":"Point","coordinates":[-3.188319,55.945518]},"properties":{"location":"skills.less.herb","marker-symbol":"lighthouse","marker-color":"#c0ff00","rgb-string":"#c0ff00"}},{"type":"Feature","geometry":{"type":"Point","coordinates":[-3.186777,55.944575]},"properties":{"location":"artist.gets.react","marker-symbol":"danger","marker-color":"#ff8000","rgb-string":"#ff8000"}},{"type":"Feature","geometry":{"type":"Point","coordinates":[-3.188704,55.945168]},"properties":{"location":"rooms.lamp.teach","marker-symbol":"danger","marker-color":"#ffc000","rgb-string":"#ffc000"}},{"type":"Feature","geometry":{"type":"Point","coordinates":[-3.191594,55.945195]},"properties":{"location":"hills.feels.tunes","marker-symbol":"danger","marker-color":"#ff8000","rgb-string":"#ff8000"}},{"type":"Feature","geometry":{"type":"Point","coordinates":[-3.187259,55.945653]},"properties":{"location":"diner.leaves.mutual","marker-symbol":"danger","marker-color":"#ff4000","rgb-string":"#ff4000"}},{"type":"Feature","geometry":{"type":"Point","coordinates":[-3.184658,55.943874]},"properties":{"location":"rider.mile.lime","marker-symbol":"danger","marker-color":"#ff0000","rgb-string":"#ff0000"}},{"type":"Feature","geometry":{"type":"Point","coordinates":[-3.190583,55.942823]},"properties":{"location":"tonic.bliss.cove","marker-symbol":"cross","marker-color":"#000000","rgb-string":"#000000"}},{"type":"Feature","geometry":{"type":"Point","coordinates":[-3.192221,55.945114]},"properties":{"location":"useful.hike.trades","marker-symbol":"danger","marker-color":"#ff8000","rgb-string":"#ff8000"}},{"type":"Feature","geometry":{"type":"Point","coordinates":[-3.184513,55.945302]},"properties":{"location":"settle.title.united","marker-symbol":"danger","marker-color":"#ff0000","rgb-string":"#ff0000"}},{"type":"Feature","geometry":{"type":"Point","coordinates":[-3.190294,55.943712]},"properties":{"location":"sculpture.shot.melon","marker-symbol":"lighthouse","marker-color":"#40ff00","rgb-string":"#40ff00"}},{"type":"Feature","geometry":{"type":"Point","coordinates":[-3.190197,55.943443]},"properties":{"location":"arts.dish.scarcely","marker-symbol":"lighthouse","marker-color":"#40ff00","rgb-string":"#40ff00"}},{"type":"Feature","geometry":{"type":"Point","coordinates":[-3.18697,55.942688]},"properties":{"location":"strut.river.surely","marker-symbol":"danger","marker-color":"#ffc000","rgb-string":"#ffc000"}},{"type":"Feature","geometry":{"type":"Point","coordinates":[-3.189186,55.945087]},"properties":{"location":"number.exist.rate","marker-symbol":"lighthouse","marker-color":"#80ff00","rgb-string":"#80ff00"}},{"type":"Feature","geometry":{"type":"Point","coordinates":[-3.188801,55.945437]},"properties":{"location":"shady.soft.phones","marker-symbol":"danger","marker-color":"#ff8000","rgb-string":"#ff8000"}},{"type":"Feature","geometry":{"type":"Point","coordinates":[-3.186537,55.944063]},"properties":{"location":"lime.learns.front","marker-symbol":"danger","marker-color":"#ff4000","rgb-string":"#ff4000"}},{"type":"Feature","geometry":{"type":"Point","coordinates":[-3.188415,55.944305]},"properties":{"location":"trades.rare.cable","marker-symbol":"lighthouse","marker-color":"#40ff00","rgb-string":"#40ff00"}},{"type":"Feature","geometry":{"type":"Point","coordinates":[-3.191161,55.942742]},"properties":{"location":"along.spill.limp","marker-symbol":"lighthouse","marker-color":"#00ff00","rgb-string":"#00ff00"}},{"type":"Feature","geometry":{"type":"Point","coordinates":[-3.187018,55.943982]},"properties":{"location":"renew.ears.tend","marker-symbol":"lighthouse","marker-color":"#80ff00","rgb-string":"#80ff00"}},{"type":"Feature","geometry":{"type":"Point","coordinates":[-3.186922,55.945437]},"properties":{"location":"spent.spoon.bolt","marker-symbol":"danger","marker-color":"#ff4000","rgb-string":"#ff4000"}},{"type":"Feature","geometry":{"type":"Point","coordinates":[-3.187307,55.944494]},"properties":{"location":"only.fairly.rift","marker-symbol":"danger","marker-color":"#ff8000","rgb-string":"#ff8000"}},{"type":"Feature","geometry":{"type":"Point","coordinates":[-3.189957,55.94603]},"properties":{"location":"love.behind.orchestra","marker-symbol":"danger","marker-color":"#ff0000","rgb-string":"#ff0000"}},{"type":"Feature","geometry":{"type":"Point","coordinates":[-3.1875,55.943874]},"properties":{"location":"begins.spider.drips","marker-symbol":"lighthouse","marker-color":"#c0ff00","rgb-string":"#c0ff00"}}]}
