{"type":"FeatureCollection","features":[{"type":"Feature","geometry":{"type":"LineString","coordinates":[[-3.18765,55.9441402],[-3.1875,55.9438804],[-3.18735,55.9436206],[-3.1871572,55.9438504],[-3.1868753,55.943953],[-3.1865933,55.9440556],[-3.1868888,55.9440035],[-3.1870816,55.9442333],[-3.1872316,55.9444931],[-3.1869362,55.9445452],[-3.1872362,55.9445452],[-3.1875362,55.9445452],[-3.1878181,55.9446478],[-3.1879207,55.9449297],[-3.1880707,55.9451895],[-3.1882207,55.9454494],[-3.1884135,55.9456792],[-3.1886733,55.9455292],[-3.1889688,55.9455813],[-3.1892642,55.9456334],[-3.1892121,55.9453379],[-3.18916,55.9450425],[-3.1894198,55.9451925],[-3.1896797,55.9453425],[-3.1899095,55.9455353],[-3.1899616,55.9458307],[-3.190257,55.9457787],[-3.1905524,55.9457266],[-3.1908479,55.9456745],[-3.1911433,55.9456224],[-3.1910912,55.9453269],[-3.1910391,55.9450315],[-3.1913391,55.9450315],[-3.1916346,55.9450836],[-3.1919346,55.9450836],[-3.19223,55.9451357],[-3.1920372,55.9449059],[-3.1918444,55.944676],[-3.1916944,55.9444162],[-3.1915015,55.9441864],[-3.1913515,55.9439266],[-3.1911587,55.9436968],[-3.1908989,55.9435468],[-3.190617,55.9434442],[-3.1903572,55.9432942],[-3.1900753,55.9431916],[-3.1897798,55.9431395],[-3.1894844,55.9430874],[-3.1892025,55.9429848],[-3.1893525,55.9432446],[-3.1895025,55.9435044],[-3.1896525,55.9437642],[-3.1898025,55.944024],[-3.1895205,55.9439214],[-3.1892386,55.9438188],[-3.1889567,55.9437162],[-3.1886748,55.9436136],[-3.1883929,55.943511],[-3.1881331,55.943361],[-3.1878512,55.9432584],[-3.1875914,55.9431084],[-3.1873316,55.9429584],[-3.1871018,55.9427656],[-3.1869518,55.9430254],[-3.1868018,55.9432852],[-3.186572,55.943478],[-3.1862765,55.9435301],[-3.1859765,55.9435301],[-3.1857837,55.9433003],[-3.1856337,55.9430405],[-3.1853739,55.9431905],[-3.1851141,55.9433405],[-3.1848843,55.9431476],[-3.1847816,55.9434296],[-3.184679,55.9437115],[-3.1846269,55.9440069],[-3.1845749,55.9443023],[-3.1845749,55.9446023],[-3.1845228,55.9448978],[-3.1845228,55.9451978],[-3.1847826,55.9453478],[-3.1850424,55.9454978],[-3.1853243,55.9456004],[-3.1855841,55.9457504],[-3.1857769,55.9459802],[-3.1860067,55.9457874],[-3.1862366,55.9455945],[-3.1864664,55.9454017],[-3.1866962,55.9452089],[-3.186889,55.9454387],[-3.186739,55.9451789],[-3.1865462,55.9449491],[-3.1865983,55.9446536],[-3.1868937,55.9446015],[-3.1871892,55.9445494],[-3.1874846,55.9444973],[-3.1877665,55.9443947]]},"properties":{}},{"type":"Feature","geometry":{"type":"Point","coordinates":[-3.189812,55.94409]},"properties":{"location":"cliff.asleep.wedge","marker-symbol":"lighthouse","marker-color":"#40ff00","rgb-string":"#40ff00"}},{"type":"Feature","geometry":{"type":"Point","coordinates":[-3.186729,55.945168]},"properties":{"location":"dragon.bottle.crisp","marker-symbol":"danger","marker-color":"#ff0000","rgb-string":"#ff0000"}},{"type":"Feature","geometry":{"type":"Point","coordinates":[-3.191113,55.943631]},"properties":{"location":"loaf.cheer.slave","marker-symbol":"lighthouse","marker-color":"#00ff00","rgb-string":"#00ff00"}},{"type":"Feature","geometry":{"type":"Point","coordinates":[-3.185621,55.943065]},"properties":{"location":"toned.deflection.bland","marker-symbol":"cross","marker-color":"#000000","rgb-string":"#000000"}},{"type":"Feature","geometry":{"type":"Point","coordinates":[-3.184754,55.943012]},"properties":{"location":"courier.assume.bill","marker-symbol":"danger","marker-color":"#ffc000","rgb-string":"#ffc000"}},{"type":"Feature","geometry":{"type":"Point","coordinates":[-3.191257,55.945599]},"properties":{"location":"skins.engage.best","marker-symbol":"danger","marker-color":"#ff4000","rgb-string":"#ff4000"}},{"type":"Feature","geometry":{"type":"Point","coordinates":[-3.190053,55.943173]},"properties":{"location":"shows.fries.lamp","marker-symbol":"lighthouse","marker-color":"#40ff00","rgb-string":"#40ff00"}},{"type":"Feature","geometry":{"type":"Point","coordinates":[-3.188463,55.945761]},"properties":{"location":"bend.tubes.chops","marker-symbol":"danger","marker-color":"#ff4000","rgb-string":"#ff4000"}},{"type":"Feature","geometry":{"type":"Point","coordinates":[-3.189186,55.945087]},"properties":{"location":"number.exist.rate","marker-symbol":"danger","marker-color":"#ffc000","rgb-string":"#ffc000"}},{"type":"Feature","geometry":{"type":"Point","coordinates":[-3.187837,55.943227]},"properties":{"location":"gums.clock.modes","marker-symbol":"lighthouse","marker-color":"#80ff00","rgb-string":"#80ff00"}},{"type":"Feature","geometry":{"type":"Point","coordinates":[-3.187355,55.943604]},"properties":{"location":"shut.stands.media","marker-symbol":"lighthouse","marker-color":"#80ff00","rgb-string":"#80ff00"}},{"type":"Feature","geometry":{"type":"Point","coordinates":[-3.186537,55.944925]},"properties":{"location":"laws.merit.bleak","marker-symbol":"danger","marker-color":"#ff0000","rgb-string":"#ff0000"}},{"type":"Feature","geometry":{"type":"Point","coordinates":[-3.18697,55.942688]},"properties":{"location":"strut.river.surely","marker-symbol":"lighthouse","marker-color":"#c0ff00","rgb-string":"#c0ff00"}},{"type":"Feature","geometry":{"type":"Point","coordinates":[-3.185814,55.943551]},"properties":{"location":"record.sofa.sock","marker-symbol":"cross","marker-color":"#000000","rgb-string":"#000000"}},{"type":"Feature","geometry":{"type":"Point","coordinates":[-3.186922,55.945437]},"properties":{"location":"spent.spoon.bolt","marker-symbol":"danger","marker-color":"#ff8000","rgb-string":"#ff8000"}},{"type":"Feature","geometry":{"type":"Point","coordinates":[-3.184947,55.943443]},"properties":{"location":"sentences.sings.modern","marker-symbol":"danger","marker-color":"#ffc000","rgb-string":"#ffc000"}},{"type":"Feature","geometry":{"type":"Point","coordinates":[-3.187018,55.943982]},"properties":{"location":"renew.ears.tend","marker-symbol":"lighthouse","marker-color":"#c0ff00","rgb-string":"#c0ff00"}},{"type":"Feature","geometry":{"type":"Point","coordinates":[-3.192221,55.945114]},"properties":{"location":"useful.hike.trades","marker-symbol":"lighthouse","marker-color":"#c0ff00","rgb-string":"#c0ff00"}},{"type":"Feature","geometry":{"type":"Point","coordinates":[-3.187885,55.944709]},"properties":{"location":"hurt.green.filer","marker-symbol":"lighthouse","marker-color":"#c0ff00","rgb-string":"#c0ff00"}},{"type":"Feature","geometry":{"type":"Point","coordinates":[-3.184513,55.945302]},"properties":{"location":"settle.title.united","marker-symbol":"danger","marker-color":"#ffc000","rgb-string":"#ffc000"}},{"type":"Feature","geometry":{"type":"Point","coordinates":[-3.187645,55.944143]},"properties":{"location":"bound.ends.matter","marker-symbol":"lighthouse","marker-color":"#80ff00","rgb-string":"#80ff00"}},{"type":"Feature","geometry":{"type":"Point","coordinates":[-3.189957,55.94603]},"properties":{"location":"love.behind.orchestra","marker-symbol":"danger","marker-color":"#ffc000","rgb-string":"#ffc000"}},{"type":"Feature","geometry":{"type":"Point","coordinates":[-3.185814,55.94603]},"properties":{"location":"renew.slows.basket","marker-symbol":"danger","marker-color":"#ff8000","rgb-string":"#ff8000"}},{"type":"Feature","geometry":{"type":"Point","coordinates":[-3.186777,55.944575]},"properties":{"location":"artist.gets.react","marker-symbol":"cross","marker-color":"#000000","rgb-string":"#000000"}},{"type":"Feature","geometry":{"type":"Point","coordinates":[-3.184658,55.943874]},"properties":{"location":"rider.mile.lime","marker-symbol":"danger","marker-color":"#ffc000","rgb-string":"#ffc000"}},{"type":"Feature","geometry":{"type":"Point","coordinates":[-3.189234,55.943012]},"properties":{"location":"region.passes.pencil","marker-symbol":"lighthouse","marker-color":"#80ff00","rgb-string":"#80ff00"}},{"type":"Feature","geometry":{"type":"Point","coordinates":[-3.185621,55.945761]},"properties":{"location":"shed.desire.muddy","marker-symbol":"danger","marker-color":"#ff8000","rgb-string":"#ff8000"}},{"type":"Feature","geometry":{"type":"Point","coordinates":[-3.18933,55.945653]},"properties":{"location":"museum.spicy.horns","marker-symbol":"danger","marker-color":"#ffc000","rgb-string":"#ffc000"}},{"type":"Feature","geometry":{"type":"Point","coordinates":[-3.191016,55.944979]},"properties":{"location":"shapes.sheep.nature","marker-symbol":"danger","marker-color":"#ff4000","rgb-string":"#ff4000"}},{"type":"Feature","geometry":{"type":"Point","coordinates":[-3.188801,55.945437]},"properties":{"location":"shady.soft.phones","marker-symbol":"cross","marker-color":"#000000","rgb-string":"#000000"}},{"type":"Feature","geometry":{"type":"Point","coordinates":[-3.1875,55.943874]},"properties":{"location":"begins.spider.drips","marker-symbol":"lighthouse","marker-color":"#80ff00","rgb-string":"#80ff00"}},{"type":"Feature","geometry":{"type":"Point","coordinates":[-3.186537,55.944063]},"properties":{"location":"lime.learns.front","marker-symbol":"danger","marker-color":"#ff8000","rgb-string":"#ff8000"}},{"type":"Feature","geometry":{"type":"Point","coordinates":[-3.18986,55.945491]},"properties":{"location":"turkey.limit.ramp","marker-symbol":"danger","marker-color":"#ffc000","rgb-string":"#ffc000"}}]}
