{"type":"FeatureCollection","features":[{"type":"Feature","geometry":{"type":"LineString","coordinates":[[-3.1876072,55.9441702],[-3.1878,55.9444],[-3.1879026,55.9446819],[-3.1880052,55.9449638],[-3.188265,55.9451138],[-3.1885248,55.9452638],[-3.1887846,55.9454138],[-3.188682,55.9456957],[-3.1885794,55.9459776],[-3.1888794,55.9459776],[-3.1891794,55.9459776],[-3.1894749,55.9459255],[-3.1894228,55.9456301],[-3.1893707,55.9453347],[-3.1893186,55.9450392],[-3.1892665,55.9447438],[-3.1892144,55.9444483],[-3.1891118,55.9441664],[-3.1889618,55.9439066],[-3.1888592,55.9436247],[-3.1887092,55.9433649],[-3.1886066,55.943083],[-3.188902,55.9430309],[-3.189202,55.9430309],[-3.188902,55.9430309],[-3.188602,55.9430309],[-3.1883201,55.9429283],[-3.1880382,55.9430309],[-3.1877563,55.9431335],[-3.1874744,55.9432361],[-3.1871925,55.9433387],[-3.1870899,55.9430568],[-3.1869873,55.9427749],[-3.1867054,55.9428775],[-3.1864099,55.9429296],[-3.1861801,55.9427368],[-3.1858847,55.9427889],[-3.1856028,55.9428915],[-3.1856548,55.9431869],[-3.185425,55.9433797],[-3.1852322,55.9436096],[-3.185425,55.9438394],[-3.1852322,55.9436096],[-3.1850394,55.9433797],[-3.1848095,55.9431869],[-3.1847069,55.942905],[-3.1846548,55.9432004],[-3.1846028,55.9434959],[-3.1845507,55.9437913],[-3.1845507,55.9440913],[-3.1844986,55.9443868],[-3.1844986,55.9446868],[-3.1844465,55.9449822],[-3.1846763,55.945175],[-3.1849061,55.9453679],[-3.1851359,55.9455607],[-3.1853957,55.9457107],[-3.1856255,55.9459036],[-3.1858853,55.9460536],[-3.1861451,55.9459036],[-3.186405,55.9457536],[-3.1866648,55.9456036],[-3.1869246,55.9454536],[-3.1867317,55.9452237],[-3.1865817,55.9449639],[-3.1864791,55.944682],[-3.1862493,55.9444892],[-3.1861467,55.9442073],[-3.1864065,55.9440573],[-3.186702,55.9440052],[-3.187002,55.9440052],[-3.187302,55.9440052],[-3.187602,55.9440052],[-3.187902,55.9440052],[-3.188202,55.9440052],[-3.188502,55.9440052],[-3.188802,55.9440052],[-3.189102,55.9440052],[-3.1893974,55.9440573],[-3.1896974,55.9440573],[-3.1897495,55.9437618],[-3.1898016,55.9434664],[-3.1898537,55.943171],[-3.1899058,55.9428755],[-3.1897558,55.9426157],[-3.1900558,55.9426157],[-3.1903558,55.9426157],[-3.1906558,55.9426157],[-3.1909558,55.9426157],[-3.1912558,55.9426157],[-3.1915558,55.9426157],[-3.1918558,55.9426157],[-3.1921558,55.9426157],[-3.1924558,55.9426157],[-3.1927558,55.9426157],[-3.1927558,55.9429157],[-3.1927558,55.9432157],[-3.1927558,55.9435157],[-3.1927558,55.9438157],[-3.1927558,55.9441157],[-3.1927558,55.9444157],[-3.1927558,55.9447157],[-3.1927037,55.9450111],[-3.1926516,55.9453066],[-3.1925995,55.945602],[-3.1925474,55.9458975],[-3.1924953,55.9461929],[-3.1923927,55.9464748],[-3.1920927,55.9464748],[-3.1917927,55.9464748],[-3.1914927,55.9464748],[-3.1911927,55.9464748],[-3.1908927,55.9464748],[-3.1905927,55.9464748],[-3.1902927,55.9464748],[-3.1899927,55.9464748],[-3.1896927,55.9464748],[-3.1893927,55.9464748],[-3.1890927,55.9464748],[-3.1887927,55.9464748],[-3.1884927,55.9464748],[-3.1881927,55.9464748],[-3.1878927,55.9464748],[-3.1875927,55.9464748],[-3.1872927,55.9464748],[-3.1869927,55.9464748],[-3.1866927,55.9464748],[-3.1863927,55.9464748],[-3.1860927,55.9464748],[-3.1857927,55.9464748],[-3.1854927,55.9464748],[-3.1851973,55.9464227],[-3.1849018,55.9463706],[-3.1846064,55.9463185],[-3.1843109,55.9462664],[-3.1843109,55.9459664],[-3.1843109,55.9456664],[-3.1843109,55.9453664],[-3.1843109,55.9450664],[-3.1843109,55.9447664],[-3.1843109,55.9444664],[-3.1843109,55.9441664],[-3.1843109,55.9438664],[-3.1843109,55.9435664],[-3.1843109,55.9432664],[-3.1843109,55.9429664],[-3.1843109,55.9426664],[-3.1843109,55.9423664],[-3.1846109,55.9423664],[-3.1849109,55.9423664]]},"properties":{}},{"type":"Feature","geometry":{"type":"Point","coordinates":[-3.18514,55.943685]},"properties":{"location":"hello.love.keys","marker-symbol":"danger","marker-color":"#ffc000","rgb-string":"#ffc000"}},{"type":"Feature","geometry":{"type":"Point","coordinates":[-3.192221,55.945114]},"properties":{"location":"useful.hike.trades","marker-symbol":"","marker-color":"#aaaaaa","rgb-string":"#aaaaaa"}},{"type":"Feature","geometry":{"type":"Point","coordinates":[-3.189234,55.943012]},"properties":{"location":"region.passes.pencil","marker-symbol":"lighthouse","marker-color":"#40ff00","rgb-string":"#40ff00"}},{"type":"Feature","geometry":{"type":"Point","coordinates":[-3.191161,55.943065]},"properties":{"location":"else.urban.museum","marker-symbol":"","marker-color":"#aaaaaa","rgb-string":"#aaaaaa"}},{"type":"Feature","geometry":{"type":"Point","coordinates":[-3.187789,55.944386]},"properties":{"location":"thank.salsa.brain","marker-symbol":"lighthouse","marker-color":"#80ff00","rgb-string":"#80ff00"}},{"type":"Feature","geometry":{"type":"Point","coordinates":[-3.191065,55.944709]},"properties":{"location":"estate.gave.votes","marker-symbol":"","marker-color":"#aaaaaa","rgb-string":"#aaaaaa"}},{"type":"Feature","geometry":{"type":"Point","coordinates":[-3.189138,55.944197]},"properties":{"location":"spoon.invest.every","marker-symbol":"lighthouse","marker-color":"#40ff00","rgb-string":"#40ff00"}},{"type":"Feature","geometry":{"type":"Point","coordinates":[-3.185621,55.943065]},"properties":{"location":"toned.deflection.bland","marker-symbol":"danger","marker-color":"#ffc000","rgb-string":"#ffc000"}},{"type":"Feature","geometry":{"type":"Point","coordinates":[-3.188608,55.943119]},"properties":{"location":"groups.ideas.script","marker-symbol":"lighthouse","marker-color":"#80ff00","rgb-string":"#80ff00"}},{"type":"Feature","geometry":{"type":"Point","coordinates":[-3.187018,55.943982]},"properties":{"location":"renew.ears.tend","marker-symbol":"lighthouse","marker-color":"#c0ff00","rgb-string":"#c0ff00"}},{"type":"Feature","geometry":{"type":"Point","coordinates":[-3.189812,55.94409]},"properties":{"location":"cliff.asleep.wedge","marker-symbol":"lighthouse","marker-color":"#40ff00","rgb-string":"#40ff00"}},{"type":"Feature","geometry":{"type":"Point","coordinates":[-3.18856,55.946057]},"properties":{"location":"boost.radar.stress","marker-symbol":"danger","marker-color":"#ff4000","rgb-string":"#ff4000"}},{"type":"Feature","geometry":{"type":"Point","coordinates":[-3.191113,55.943631]},"properties":{"location":"loaf.cheer.slave","marker-symbol":"","marker-color":"#aaaaaa","rgb-string":"#aaaaaa"}},{"type":"Feature","geometry":{"type":"Point","coordinates":[-3.184803,55.943173]},"properties":{"location":"brings.remedy.latter","marker-symbol":"cross","marker-color":"#000000","rgb-string":"#000000"}},{"type":"Feature","geometry":{"type":"Point","coordinates":[-3.191065,55.94444]},"properties":{"location":"paying.crowd.weep","marker-symbol":"","marker-color":"#aaaaaa","rgb-string":"#aaaaaa"}},{"type":"Feature","geometry":{"type":"Point","coordinates":[-3.187018,55.942877]},"properties":{"location":"valve.elaborate.fortunate","marker-symbol":"cross","marker-color":"#000000","rgb-string":"#000000"}},{"type":"Feature","geometry":{"type":"Point","coordinates":[-3.185573,55.942877]},"properties":{"location":"dent.shins.cycle","marker-symbol":"danger","marker-color":"#ff0000","rgb-string":"#ff0000"}},{"type":"Feature","geometry":{"type":"Point","coordinates":[-3.18697,55.942688]},"properties":{"location":"strut.river.surely","marker-symbol":"danger","marker-color":"#ffc000","rgb-string":"#ffc000"}},{"type":"Feature","geometry":{"type":"Point","coordinates":[-3.185814,55.94603]},"properties":{"location":"renew.slows.basket","marker-symbol":"danger","marker-color":"#ff8000","rgb-string":"#ff8000"}},{"type":"Feature","geometry":{"type":"Point","coordinates":[-3.188945,55.943928]},"properties":{"location":"noted.friday.jams","marker-symbol":"lighthouse","marker-color":"#40ff00","rgb-string":"#40ff00"}},{"type":"Feature","geometry":{"type":"Point","coordinates":[-3.185525,55.943982]},"properties":{"location":"manliness.poem.cliff","marker-symbol":"lighthouse","marker-color":"#c0ff00","rgb-string":"#c0ff00"}},{"type":"Feature","geometry":{"type":"Point","coordinates":[-3.184465,55.944952]},"properties":{"location":"sports.topic.clocks","marker-symbol":"danger","marker-color":"#ff4000","rgb-string":"#ff4000"}},{"type":"Feature","geometry":{"type":"Point","coordinates":[-3.191113,55.94417]},"properties":{"location":"hills.giant.crate","marker-symbol":"","marker-color":"#aaaaaa","rgb-string":"#aaaaaa"}},{"type":"Feature","geometry":{"type":"Point","coordinates":[-3.189379,55.945949]},"properties":{"location":"coherent.saints.stuck","marker-symbol":"danger","marker-color":"#ff0000","rgb-string":"#ff0000"}},{"type":"Feature","geometry":{"type":"Point","coordinates":[-3.184754,55.943012]},"properties":{"location":"courier.assume.bill","marker-symbol":"danger","marker-color":"#ff4000","rgb-string":"#ff4000"}},{"type":"Feature","geometry":{"type":"Point","coordinates":[-3.189764,55.942661]},"properties":{"location":"hooked.shine.third","marker-symbol":"lighthouse","marker-color":"#40ff00","rgb-string":"#40ff00"}},{"type":"Feature","geometry":{"type":"Point","coordinates":[-3.186248,55.942796]},"properties":{"location":"under.retire.bump","marker-symbol":"danger","marker-color":"#ff0000","rgb-string":"#ff0000"}},{"type":"Feature","geometry":{"type":"Point","coordinates":[-3.189908,55.942904]},"properties":{"location":"second.launch.miles","marker-symbol":"cross","marker-color":"#000000","rgb-string":"#000000"}},{"type":"Feature","geometry":{"type":"Point","coordinates":[-3.186344,55.942958]},"properties":{"location":"hers.banks.goat","marker-symbol":"danger","marker-color":"#ffc000","rgb-string":"#ffc000"}},{"type":"Feature","geometry":{"type":"Point","coordinates":[-3.187211,55.943335]},"properties":{"location":"scale.chair.kinds","marker-symbol":"danger","marker-color":"#ffc000","rgb-string":"#ffc000"}},{"type":"Feature","geometry":{"type":"Point","coordinates":[-3.186922,55.945437]},"properties":{"location":"spent.spoon.bolt","marker-symbol":"danger","marker-color":"#ff4000","rgb-string":"#ff4000"}},{"type":"Feature","geometry":{"type":"Point","coordinates":[-3.18803,55.944979]},"properties":{"location":"agents.mile.crib","marker-symbol":"lighthouse","marker-color":"#c0ff00","rgb-string":"#c0ff00"}},{"type":"Feature","geometry":{"type":"Point","coordinates":[-3.188801,55.945437]},"properties":{"location":"shady.soft.phones","marker-symbol":"danger","marker-color":"#ffc000","rgb-string":"#ffc000"}}]}
